{"type":"FeatureCollection","features":[{"geometry":{"coordinates":[13.150311,48.103079],"type":"Point"},"properties":{"name":"Mattighofen","type":"Point","marker-color":"#A0371E","fill":"","marker-symbol":"star","stroke":"#EAE2B7"},"type":"Feature","id":0},{"geometry":{"coordinates":[-59.982504,-3.131633],"type":"Point"},"properties":{"name":"Manaus","type":"Point","marker-color":"#A0371E","fill":" ","marker-symbol":"star","stroke":"#EAE2B7"},"type":"Feature"},{"geometry":{"coordinates":[118.778873,32.043771],"type":"Point"},"properties":{"name":"Nanjing","type":"Point","marker-color":"#A0371E","fill":" ","marker-symbol":"star","stroke":"#EAE2B7"},"type":"Feature","id":3},{"geometry":{"coordinates":[111.002141,35.027637],"type":"Point"},"properties":{"name":"Yuncheng","type":"Point","marker-color":"#A0371E","fill":" ","marker-symbol":"star","stroke":"#EAE2B7"},"type":"Feature"},{"geometry":{"coordinates":[14.421253,50.087465],"type":"Point"},"properties":{"name":"Prague","type":"Point","marker-color":"#A0371E","fill":" ","marker-symbol":"star","stroke":"#EAE2B7"},"type":"Feature","id":7},{"geometry":{"coordinates":[12.5697339,55.6753132],"type":"Point"},"properties":{"name":"Copenhagen","type":"Point","marker-color":"#A0371E","fill":" ","marker-symbol":"star","stroke":"#EAE2B7"},"type":"Feature"},{"geometry":{"coordinates":[2.3483915,48.8534951],"type":"Point"},"properties":{"name":"Paris","type":"Point","marker-color":"#A0371E","fill":" ","marker-symbol":"star","stroke":"#EAE2B7"},"type":"Feature"},{"geometry":{"coordinates":[13.3888599,52.5170365],"type":"Point"},"properties":{"name":"Berlin","type":"Point","marker-color":"#A0371E","fill":" ","marker-symbol":"star","stroke":"#EAE2B7"},"type":"Feature"},{"geometry":{"coordinates":[11.5772753,48.1365601],"type":"Point"},"properties":{"name":"Munich","type":"Point","marker-color":"#A0371E","fill":" ","marker-symbol":"star","stroke":"#EAE2B7"},"type":"Feature"},{"geometry":{"coordinates":[12.913123,43.909811],"type":"Point"},"properties":{"name":"Pesaro","type":"Point","marker-color":"#A0371E","fill":" ","marker-symbol":"star","stroke":"#EAE2B7"},"type":"Feature","id":17},{"geometry":{"coordinates":[11.342633,44.49382],"type":"Point"},"properties":{"name":"Bologna","type":"Point","marker-color":"#A0371E","fill":" ","marker-symbol":"star","stroke":"#EAE2B7"},"type":"Feature","id":18},{"geometry":{"coordinates":[134.947692,34.683264],"type":"Point"},"properties":{"name":"Akashi","type":"Point","marker-color":"#A0371E","fill":" ","marker-symbol":"star","stroke":"#EAE2B7"},"type":"Feature","id":21},{"geometry":{"coordinates":[139.6929116,35.6889853],"type":"Point"},"properties":{"name":"Tokyo","type":"Point","marker-color":"#A0371E","fill":" ","marker-symbol":"star","stroke":"#EAE2B7"},"type":"Feature"},{"geometry":{"coordinates":[139.726723,35.639131],"type":"Point"},"properties":{"name":"Minato","type":"Point","marker-color":"#A0371E","fill":" ","marker-symbol":"star","stroke":"#EAE2B7"},"type":"Feature","id":23},{"geometry":{"coordinates":[100.476252,5.818684],"type":"Point"},"properties":{"name":"Gurun","type":"Point","marker-color":"#A0371E","fill":" ","marker-symbol":"star","stroke":"#EAE2B7"},"type":"Feature","id":26},{"geometry":{"coordinates":[-8.653784,40.640496],"type":"Point"},"properties":{"name":"Aveiro","type":"Point","marker-color":"#A0371E","fill":"#F77F00","marker-symbol":"star","stroke":"#EAE2B7"},"type":"Feature"},{"geometry":{"coordinates":[-8.285565,41.206189],"type":"Point"},"properties":{"name":"Penafiel","type":"Point","marker-color":"#A0371E","fill":"#F77F00","marker-symbol":"star","stroke":"#EAE2B7"},"type":"Feature"},{"geometry":{"coordinates":[53.209417,56.866557],"type":"Point"},"properties":{"name":"Izhevsk","type":"Point","marker-color":"#A0371E","fill":" ","marker-symbol":"star","stroke":"#EAE2B7"},"type":"Feature"},{"geometry":{"coordinates":[128.681859,35.227956],"type":"Point"},"properties":{"name":"Changwon","type":"Point","marker-color":"#A0371E","fill":"#000000","marker-symbol":"star","marker-size":"medium","stroke":"#EAE2B7"},"type":"Feature","id":34},{"geometry":{"coordinates":[2.963843,42.266631],"type":"Point"},"properties":{"name":"Figueres","type":"Point","marker-color":"#A0371E","fill":" ","marker-symbol":"star","stroke":"#EAE2B7"},"type":"Feature"},{"geometry":{"coordinates":[120.312037,22.620335],"type":"Point"},"properties":{"name":"Kaohsiung","type":"Point","marker-color":"#A0371E","fill":" ","marker-symbol":"star","stroke":"#EAE2B7"},"type":"Feature"},{"geometry":{"coordinates":[121.301,24.993],"type":"Point"},"properties":{"name":"Taoyuan","type":"Point","marker-color":"#A0371E","fill":" ","marker-symbol":"star","stroke":"#EAE2B7"},"type":"Feature","id":39},{"geometry":{"coordinates":[30.5241361,50.4500336],"type":"Point"},"properties":{"name":"Kyiv","type":"Point","marker-color":"#A0371E","fill":" ","marker-symbol":"star","stroke":"#EAE2B7"},"type":"Feature"},{"geometry":{"coordinates":[-87.922497,43.034993],"type":"Point"},"properties":{"name":"Milwaukee","type":"Point","marker-color":"#A0371E","fill":" ","marker-symbol":"star","stroke":"#EAE2B7"},"type":"Feature"},{"geometry":{"coordinates":[106.6749591,20.858864],"type":"Point"},"properties":{"name":"Haiphong","type":"Point","marker-color":"#A0371E","fill":" ","marker-symbol":"star","stroke":"#EAE2B7"},"type":"Feature"}]}